[
    {
      "city": "Phoenix",
      "country": "USA",
      "lat": 33.4484,
      "lon": -112.0740
    },
    {
      "city": "Atlanta",
      "country": "USA",
      "lat": 33.7490,
      "lon": -84.3880
    },
    {
      "city": "Baltimore",
      "country": "USA",
      "lat": 39.2904,
      "lon": -76.6122
    },
    {
      "city": "Buffalo",
      "country": "USA",
      "lat": 42.8864,
      "lon": -78.8784
    },
    {
      "city": "Charlotte",
      "country": "USA",
      "lat": 35.2271,
      "lon": -80.8431
    },
    {
      "city": "Chicago",
      "country": "USA",
      "lat": 41.8781,
      "lon": -87.6298
    },
    {
      "city": "Cincinnati",
      "country": "USA",
      "lat": 39.1031,
      "lon": -84.5120
    },
    {
      "city": "Cleveland",
      "country": "USA",
      "lat": 41.4993,
      "lon": -81.6944
    },
    {
      "city": "Dallas",
      "country": "USA",
      "lat": 32.7767,
      "lon": -96.7970
    },
    {
      "city": "Denver",
      "country": "USA",
      "lat": 39.7392,
      "lon": -104.9903
    },
    {
      "city": "Detroit",
      "country": "USA",
      "lat": 42.3314,
      "lon": -83.0458
    },
    {
      "city": "Green Bay",
      "country": "USA",
      "lat": 44.5133,
      "lon": -88.0133
    },
    {
      "city": "Houston",
      "country": "USA",
      "lat": 29.7604,
      "lon": -95.3698
    },
    {
      "city": "Indianapolis",
      "country": "USA",
      "lat": 39.7684,
      "lon": -86.1581
    },
    {
      "city": "Jacksonville",
      "country": "USA",
      "lat": 30.3322,
      "lon": -81.6557
    },
    {
      "city": "Kansas City",
      "country": "USA",
      "lat": 39.0997,
      "lon": -94.5786
    },
    {
      "city": "Las Vegas",
      "country": "USA",
      "lat": 36.1699,
      "lon": -115.1398
    },
    {
      "city": "Los Angeles",
      "country": "USA",
      "lat": 34.0522,
      "lon": -118.2437
    },
    {
      "city": "Miami",
      "country": "USA",
      "lat": 25.7617,
      "lon": -80.1918
    },
    {
      "city": "Minneapolis",
      "country": "USA",
      "lat": 44.9778,
      "lon": -93.2650
    },
    {
      "city": "New Orleans",
      "country": "USA",
      "lat": 29.9511,
      "lon": -90.0715
    },
    {
      "city": "New York City",
      "country": "USA",
      "lat": 40.7128,
      "lon": -74.0060
    },
    {
      "city": "Nashville",
      "country": "USA",
      "lat": 36.1627,
      "lon": -86.7816
    },
    {
      "city": "Philadelphia",
      "country": "USA",
      "lat": 39.9526,
      "lon": -75.1652
    },
    {
      "city": "Pittsburgh",
      "country": "USA",
      "lat": 40.4406,
      "lon": -79.9959
    },
    {
      "city": "San Francisco",
      "country": "USA",
      "lat": 37.7749,
      "lon": -122.4194
    },
    {
      "city": "Seattle",
      "country": "USA",
      "lat": 47.6062,
      "lon": -122.3321
    },
    {
      "city": "Tampa",
      "country": "USA",
      "lat": 27.9506,
      "lon": -82.4572
    },
    {
      "city": "Nashville",
      "country": "USA",
      "lat": 36.1627,
      "lon": -86.7816
    },
    {
      "city": "Washington, D.C.",
      "country": "USA",
      "lat": 38.9072,
      "lon": -77.0369
    }
  ]
  